satellite_data/Sun.csv

Start Time (UTCG),Stop Time (UTCG),Duration (sec)
2016/03/15 00:00:00,2016/03/15 00:52:20,3140
2016/03/15 01:28:22,2016/03/15 02:24:06,3344
2016/03/15 03:00:07,2016/03/15 03:55:51,3344
2016/03/15 04:31:52,2016/03/15 05:27:37,3345
2016/03/15 06:03:36,2016/03/15 06:59:22,3346
2016/03/15 07:35:21,2016/03/15 08:31:08,3347
2016/03/15 09:07:06,2016/03/15 10:02:53,3347
2016/03/15 10:38:51,2016/03/15 11:34:39,3348
2016/03/15 12:10:35,2016/03/15 13:06:24,3349
2016/03/15 13:42:20,2016/03/15 14:38:10,3350
2016/03/15 15:14:05,2016/03/15 16:09:56,3351
2016/03/15 16:45:50,2016/03/15 17:41:41,3351
2016/03/15 18:17:34,2016/03/15 19:13:27,3353
2016/03/15 19:49:19,2016/03/15 20:45:12,3353
2016/03/15 21:21:04,2016/03/15 22:16:58,3354
2016/03/15 22:52:48,2016/03/15 23:48:43,3355
2016/03/16 00:24:33,2016/03/16 01:20:29,3356
2016/03/16 01:56:17,2016/03/16 02:52:15,3358
2016/03/16 03:28:02,2016/03/16 04:24:00,3358
2016/03/16 04:59:46,2016/03/16 05:55:46,3360
2016/03/16 06:31:31,2016/03/16 07:27:31,3360
2016/03/16 08:03:16,2016/03/16 08:59:17,3361
2016/03/16 09:35:00,2016/03/16 10:31:03,3363
2016/03/16 11:06:45,2016/03/16 12:02:48,3363
2016/03/16 12:38:29,2016/03/16 13:34:34,3365
2016/03/16 14:10:13,2016/03/16 15:06:19,3366
2016/03/16 15:41:58,2016/03/16 16:38:05,3367
2016/03/16 17:13:42,2016/03/16 18:09:51,3369
2016/03/16 18:45:27,2016/03/16 19:41:36,3369
2016/03/16 20:17:11,2016/03/16 21:13:22,3371
2016/03/16 21:48:56,2016/03/16 22:45:08,3372
2016/03/16 23:20:40,2016/03/17 00:16:53,3373
2016/03/17 00:52:24,2016/03/17 01:48:39,3375
2016/03/17 02:24:09,2016/03/17 03:20:25,3376
2016/03/17 03:55:53,2016/03/17 04:52:10,3377
2016/03/17 05:27:37,2016/03/17 06:23:56,3379
2016/03/17 06:59:22,2016/03/17 07:55:42,3380
2016/03/17 08:31:06,2016/03/17 09:27:27,3381
2016/03/17 10:02:50,2016/03/17 10:59:13,3383
2016/03/17 11:34:34,2016/03/17 12:30:59,3385
2016/03/17 13:06:19,2016/03/17 14:02:45,3386
2016/03/17 14:38:03,2016/03/17 15:34:30,3387
2016/03/17 16:09:47,2016/03/17 17:06:16,3389
2016/03/17 17:41:32,2016/03/17 18:38:02,3390
2016/03/17 19:13:16,2016/03/17 20:09:48,3392
2016/03/17 20:45:00,2016/03/17 21:41:33,3393
2016/03/17 22:16:44,2016/03/17 23:13:19,3395
2016/03/17 23:48:28,2016/03/18 00:45:05,3397
2016/03/18 01:20:13,2016/03/18 02:16:51,3398
2016/03/18 02:51:57,2016/03/18 03:48:37,3400
2016/03/18 04:23:41,2016/03/18 05:20:23,3402
2016/03/18 05:55:25,2016/03/18 06:52:09,3404
2016/03/18 07:27:09,2016/03/18 08:23:54,3405
2016/03/18 08:58:53,2016/03/18 09:55:40,3407
2016/03/18 10:30:38,2016/03/18 11:27:26,3408
2016/03/18 12:02:22,2016/03/18 12:59:12,3410
2016/03/18 13:34:06,2016/03/18 14:30:58,3412
2016/03/18 15:05:50,2016/03/18 16:02:44,3414
2016/03/18 16:37:34,2016/03/18 17:34:30,3416
2016/03/18 18:09:18,2016/03/18 19:06:16,3418
2016/03/18 19:41:02,2016/03/18 20:38:02,3420
2016/03/18 21:12:46,2016/03/18 22:09:48,3422
2016/03/18 22:44:30,2016/03/18 23:41:34,3424
2016/03/19 00:16:14,2016/03/19 01:13:20,3426
2016/03/19 01:47:59,2016/03/19 02:45:07,3428
2016/03/19 03:19:43,2016/03/19 04:16:53,3430
2016/03/19 04:51:27,2016/03/19 05:48:39,3432
2016/03/19 06:23:11,2016/03/19 07:20:25,3434
2016/03/19 07:54:55,2016/03/19 08:52:11,3436
2016/03/19 09:26:39,2016/03/19 10:23:57,3438
2016/03/19 10:58:23,2016/03/19 11:55:44,3441
2016/03/19 12:30:07,2016/03/19 13:27:30,3443
2016/03/19 14:01:51,2016/03/19 14:59:16,3445
2016/03/19 15:33:35,2016/03/19 16:31:03,3448
2016/03/19 17:05:19,2016/03/19 18:02:49,3450
2016/03/19 18:37:03,2016/03/19 19:34:35,3452
2016/03/19 20:08:47,2016/03/19 21:06:22,3455
2016/03/19 21:40:31,2016/03/19 22:38:08,3457
2016/03/19 23:12:15,2016/03/20 00:09:55,3460
2016/03/20 00:44:00,2016/03/20 01:41:41,3461
2016/03/20 02:15:44,2016/03/20 03:13:27,3463
2016/03/20 03:47:28,2016/03/20 04:45:14,3466
2016/03/20 05:19:12,2016/03/20 06:17:01,3469
2016/03/20 06:50:56,2016/03/20 07:48:47,3471
2016/03/20 08:22:40,2016/03/20 09:20:34,3474
2016/03/20 09:54:24,2016/03/20 10:52:20,3476
2016/03/20 11:26:08,2016/03/20 12:24:07,3479
2016/03/20 12:57:52,2016/03/20 13:55:54,3482
2016/03/20 14:29:36,2016/03/20 15:27:40,3484
2016/03/20 16:01:20,2016/03/20 16:59:27,3487
2016/03/20 17:33:04,2016/03/20 18:31:14,3490
2016/03/20 19:04:49,2016/03/20 20:03:01,3492
2016/03/20 20:36:33,2016/03/20 21:34:48,3495
2016/03/20 22:08:17,2016/03/20 23:06:34,3497
2016/03/20 23:40:01,2016/03/21 00:38:21,3500
2016/03/21 01:11:45,2016/03/21 02:10:08,3503
2016/03/21 02:43:29,2016/03/21 03:41:55,3506
2016/03/21 04:15:13,2016/03/21 05:13:42,3509
2016/03/21 05:46:58,2016/03/21 06:45:29,3511
2016/03/21 07:18:42,2016/03/21 08:17:16,3514
2016/03/21 08:50:26,2016/03/21 09:49:04,3518
2016/03/21 10:22:10,2016/03/21 11:20:51,3521
2016/03/21 11:53:54,2016/03/21 12:52:38,3524
2016/03/21 13:25:39,2016/03/21 14:24:25,3526
2016/03/21 14:57:23,2016/03/21 15:56:12,3529
2016/03/21 16:29:07,2016/03/21 17:28:00,3533
2016/03/21 18:00:52,2016/03/21 18:59:47,3535
2016/03/21 19:32:36,2016/03/21 20:31:34,3538
2016/03/21 21:04:20,2016/03/21 22:03:22,3542
2016/03/21 22:36:04,2016/03/21 23:35:09,3545
2016/03/22 00:07:49,2016/03/22 01:06:57,3548
2016/03/22 01:39:33,2016/03/22 02:38:44,3551
2016/03/22 03:11:18,2016/03/22 04:10:32,3554
2016/03/22 04:43:02,2016/03/22 05:42:19,3557
2016/03/22 06:14:46,2016/03/22 07:14:07,3561
2016/03/22 07:46:31,2016/03/22 08:45:55,3564
2016/03/22 09:18:15,2016/03/22 10:17:42,3567
2016/03/22 10:50:00,2016/03/22 11:49:30,3570
2016/03/22 12:21:44,2016/03/22 13:21:18,3574
2016/03/22 13:53:29,2016/03/22 14:53:06,3577
2016/03/22 15:25:13,2016/03/22 16:24:53,3580
2016/03/22 16:56:58,2016/03/22 17:56:41,3583
2016/03/22 18:28:43,2016/03/22 19:28:29,3586
2016/03/22 20:00:27,2016/03/22 21:00:17,3590
2016/03/22 21:32:12,2016/03/22 22:32:05,3593
2016/03/22 23:03:57,2016/03/23 00:03:53,3596
2016/03/23 00:35:41,2016/03/23 01:35:41,3600
2016/03/23 02:07:26,2016/03/23 03:07:30,3604
2016/03/23 03:39:11,2016/03/23 04:39:18,3607
2016/03/23 05:10:56,2016/03/23 06:11:06,3610
2016/03/23 06:42:41,2016/03/23 07:42:54,3613
2016/03/23 08:14:26,2016/03/23 09:14:42,3616
2016/03/23 09:46:10,2016/03/23 10:46:31,3621
2016/03/23 11:17:55,2016/03/23 12:18:19,3624
2016/03/23 12:49:40,2016/03/23 13:50:08,3628
2016/03/23 14:21:25,2016/03/23 15:21:56,3631
2016/03/23 15:53:11,2016/03/23 16:53:44,3633
2016/03/23 17:24:56,2016/03/23 18:25:33,3637
2016/03/23 18:56:41,2016/03/23 19:57:21,3640
2016/03/23 20:28:26,2016/03/23 21:29:10,3644
2016/03/23 22:00:11,2016/03/23 23:00:59,3648
2016/03/23 23:31:56,2016/03/24 00:32:47,3651
2016/03/24 01:03:42,2016/03/24 02:04:36,3654
2016/03/24 02:35:27,2016/03/24 03:36:25,3658
2016/03/24 04:07:13,2016/03/24 05:08:13,3660
2016/03/24 05:38:58,2016/03/24 06:40:02,3664
2016/03/24 07:10:43,2016/03/24 08:11:51,3668
2016/03/24 08:42:29,2016/03/24 09:43:40,3671
2016/03/24 10:14:15,2016/03/24 11:15:29,3674
2016/03/24 11:46:00,2016/03/24 12:47:17,3677
2016/03/24 13:17:46,2016/03/24 14:19:06,3680
2016/03/24 14:49:32,2016/03/24 15:50:55,3683
2016/03/24 16:21:17,2016/03/24 17:22:44,3687
2016/03/24 17:53:03,2016/03/24 18:54:33,3690
2016/03/24 19:24:49,2016/03/24 20:26:22,3693
2016/03/24 20:56:35,2016/03/24 21:58:11,3696
2016/03/24 22:28:21,2016/03/24 23:30:00,3699
2016/03/25 00:00:07,2016/03/25 01:01:49,3702
2016/03/25 01:31:53,2016/03/25 02:33:38,3705
2016/03/25 03:03:39,2016/03/25 04:05:27,3708
2016/03/25 04:35:25,2016/03/25 05:37:16,3711
2016/03/25 06:07:11,2016/03/25 07:09:05,3714
2016/03/25 07:38:58,2016/03/25 08:40:55,3717
2016/03/25 09:10:44,2016/03/25 10:12:44,3720
2016/03/25 10:42:30,2016/03/25 11:44:33,3723
2016/03/25 12:14:17,2016/03/25 13:16:22,3725
2016/03/25 13:46:03,2016/03/25 14:48:11,3728
2016/03/25 15:17:50,2016/03/25 16:20:00,3730
2016/03/25 16:49:36,2016/03/25 17:51:49,3733
2016/03/25 18:21:23,2016/03/25 19:23:38,3735
2016/03/25 19:53:10,2016/03/25 20:55:27,3737
2016/03/25 21:24:57,2016/03/25 22:27:16,3739
2016/03/25 22:56:43,2016/03/25 23:59:05,3742
2016/03/26 00:28:30,2016/03/26 01:30:54,3744
2016/03/26 02:00:17,2016/03/26 03:02:43,3746
2016/03/26 03:32:04,2016/03/26 04:34:32,3748
2016/03/26 05:03:51,2016/03/26 06:06:21,3750
2016/03/26 06:35:38,2016/03/26 07:38:10,3752
2016/03/26 08:07:25,2016/03/26 09:09:59,3754
2016/03/26 09:39:13,2016/03/26 10:41:48,3755
2016/03/26 11:11:00,2016/03/26 12:13:37,3757
2016/03/26 12:42:47,2016/03/26 13:45:26,3759
2016/03/26 14:14:34,2016/03/26 15:17:15,3761
2016/03/26 15:46:22,2016/03/26 16:49:03,3761
2016/03/26 17:18:09,2016/03/26 18:20:52,3763
2016/03/26 18:49:57,2016/03/26 19:52:41,3764
2016/03/26 20:21:44,2016/03/26 21:24:29,3765
2016/03/26 21:53:32,2016/03/26 22:56:18,3766
2016/03/26 23:25:19,2016/03/27 00:28:07,3768
2016/03/27 00:57:07,2016/03/27 01:59:55,3768
2016/03/27 02:28:55,2016/03/27 03:31:43,3768
2016/03/27 04:00:43,2016/03/27 05:03:32,3769
2016/03/27 05:32:30,2016/03/27 06:35:20,3770
2016/03/27 07:04:18,2016/03/27 08:07:08,3770
2016/03/27 08:36:06,2016/03/27 09:38:57,3771
2016/03/27 10:07:54,2016/03/27 11:10:45,3771
2016/03/27 11:39:42,2016/03/27 12:42:33,3771
2016/03/27 13:11:30,2016/03/27 14:14:21,3771
2016/03/27 14:43:18,2016/03/27 15:46:09,3771
2016/03/27 16:15:06,2016/03/27 17:17:57,3771
2016/03/27 17:46:54,2016/03/27 18:49:45,3771
2016/03/27 19:18:42,2016/03/27 20:21:32,3770
2016/03/27 20:50:30,2016/03/27 21:53:20,3770
2016/03/27 22:22:18,2016/03/27 23:25:08,3770
2016/03/27 23:54:06,2016/03/28 00:56:55,3769
2016/03/28 01:25:54,2016/03/28 02:28:42,3768
2016/03/28 02:57:42,2016/03/28 04:00:30,3768
2016/03/28 04:29:30,2016/03/28 05:32:17,3767
2016/03/28 06:01:19,2016/03/28 07:04:04,3765
2016/03/28 07:33:07,2016/03/28 08:35:51,3764
2016/03/28 09:04:55,2016/03/28 10:07:38,3763
2016/03/28 10:36:43,2016/03/28 11:39:25,3762
2016/03/28 12:08:31,2016/03/28 13:11:12,3761
2016/03/28 13:40:19,2016/03/28 14:42:59,3760
2016/03/28 15:12:08,2016/03/28 16:14:45,3757
2016/03/28 16:43:56,2016/03/28 17:46:32,3756
2016/03/28 18:15:44,2016/03/28 19:18:19,3755
2016/03/28 19:47:32,2016/03/28 20:50:05,3753
2016/03/28 21:19:20,2016/03/28 22:21:51,3751
2016/03/28 22:51:08,2016/03/28 23:53:37,3749
2016/03/29 00:22:56,2016/03/29 01:25:24,3748
2016/03/29 01:54:44,2016/03/29 02:57:10,3746
2016/03/29 03:26:32,2016/03/29 04:28:55,3743
2016/03/29 04:58:20,2016/03/29 06:00:41,3741
2016/03/29 06:30:08,2016/03/29 07:32:27,3739
2016/03/29 08:01:56,2016/03/29 09:04:13,3737
2016/03/29 09:33:44,2016/03/29 10:35:58,3734
2016/03/29 11:05:32,2016/03/29 12:07:44,3732
2016/03/29 12:37:20,2016/03/29 13:39:29,3729
2016/03/29 14:09:08,2016/03/29 15:11:14,3726
2016/03/29 15:40:56,2016/03/29 16:42:59,3723
2016/03/29 17:12:43,2016/03/29 18:14:45,3722
2016/03/29 18:44:31,2016/03/29 19:46:30,3719
2016/03/29 20:16:19,2016/03/29 21:18:14,3715
2016/03/29 21:48:07,2016/03/29 22:49:59,3712
2016/03/29 23:19:54,2016/03/30 00:21:44,3710
2016/03/30 00:51:42,2016/03/30 01:53:29,3707
2016/03/30 02:23:29,2016/03/30 03:25:13,3704
2016/03/30 03:55:17,2016/03/30 04:56:58,3701
2016/03/30 05:27:04,2016/03/30 06:28:42,3698
2016/03/30 06:58:51,2016/03/30 08:00:26,3695
2016/03/30 08:30:39,2016/03/30 09:32:10,3691
2016/03/30 10:02:26,2016/03/30 11:03:54,3688
2016/03/30 11:34:13,2016/03/30 12:35:38,3685
2016/03/30 13:06:00,2016/03/30 14:07:22,3682
2016/03/30 14:37:47,2016/03/30 15:39:06,3679
2016/03/30 16:09:34,2016/03/30 17:10:50,3676
2016/03/30 17:41:21,2016/03/30 18:42:34,3673
2016/03/30 19:13:08,2016/03/30 20:14:17,3669
2016/03/30 20:44:54,2016/03/30 21:46:01,3667
2016/03/30 22:16:41,2016/03/30 23:17:44,3663
2016/03/30 23:48:28,2016/03/31 00:49:27,3659
2016/03/31 01:20:14,2016/03/31 02:21:11,3657
2016/03/31 02:52:01,2016/03/31 03:52:54,3653
2016/03/31 04:23:47,2016/03/31 05:24:37,3650
2016/03/31 05:55:34,2016/03/31 06:56:20,3646
2016/03/31 07:27:20,2016/03/31 08:28:03,3643
2016/03/31 08:59:06,2016/03/31 09:59:46,3640
2016/03/31 10:30:52,2016/03/31 11:31:28,3636
2016/03/31 12:02:38,2016/03/31 13:03:11,3633
2016/03/31 13:34:24,2016/03/31 14:34:54,3630
2016/03/31 15:06:10,2016/03/31 16:06:36,3626
2016/03/31 16:37:56,2016/03/31 17:38:19,3623
2016/03/31 18:09:42,2016/03/31 19:10:01,3619
2016/03/31 19:41:28,2016/03/31 20:41:43,3615
2016/03/31 21:13:13,2016/03/31 22:13:26,3613
2016/03/31 22:44:59,2016/03/31 23:45:08,3609
2016/04/01 00:16:44,2016/04/01 01:16:50,3606
2016/04/01 01:48:30,2016/04/01 02:48:32,3602
2016/04/01 03:20:15,2016/04/01 04:20:14,3599
2016/04/01 04:52:00,2016/04/01 05:51:56,3596
2016/04/01 06:23:46,2016/04/01 07:23:38,3592
2016/04/01 07:55:31,2016/04/01 08:55:19,3588
2016/04/01 09:27:16,2016/04/01 10:27:01,3585
2016/04/01 10:59:01,2016/04/01 11:58:43,3582
2016/04/01 12:30:46,2016/04/01 13:30:24,3578
2016/04/01 14:02:30,2016/04/01 15:02:06,3576
2016/04/01 15:34:15,2016/04/01 16:33:47,3572
2016/04/01 17:06:00,2016/04/01 18:05:29,3569
2016/04/01 18:37:44,2016/04/01 19:37:10,3566
2016/04/01 20:09:29,2016/04/01 21:08:51,3562
2016/04/01 21:41:13,2016/04/01 22:40:32,3559
2016/04/01 23:12:57,2016/04/02 00:12:14,3557
2016/04/02 00:44:42,2016/04/02 01:43:55,3553
2016/04/02 02:16:26,2016/04/02 03:15:36,3550
2016/04/02 03:48:10,2016/04/02 04:47:17,3547
2016/04/02 05:19:54,2016/04/02 06:18:58,3544
2016/04/02 06:51:38,2016/04/02 07:50:38,3540
2016/04/02 08:23:22,2016/04/02 09:22:19,3537
2016/04/02 09:55:06,2016/04/02 10:54:00,3534
2016/04/02 11:26:49,2016/04/02 12:25:41,3532
2016/04/02 12:58:33,2016/04/02 13:57:21,3528
2016/04/02 14:30:17,2016/04/02 15:29:02,3525
2016/04/02 16:02:00,2016/04/02 17:00:42,3522
2016/04/02 17:33:44,2016/04/02 18:32:23,3519
2016/04/02 19:05:27,2016/04/02 20:04:03,3516
2016/04/02 20:37:10,2016/04/02 21:35:44,3514
2016/04/02 22:08:54,2016/04/02 23:07:24,3510
2016/04/02 23:40:37,2016/04/03 00:39:04,3507
2016/04/03 01:12:20,2016/04/03 02:10:45,3505
2016/04/03 02:44:03,2016/04/03 03:42:25,3502
2016/04/03 04:15:46,2016/04/03 05:14:05,3499
2016/04/03 05:47:29,2016/04/03 06:45:45,3496
2016/04/03 07:19:12,2016/04/03 08:17:25,3493
2016/04/03 08:50:54,2016/04/03 09:49:05,3491
2016/04/03 10:22:37,2016/04/03 11:20:45,3488
2016/04/03 11:54:20,2016/04/03 12:52:25,3485
2016/04/03 13:26:02,2016/04/03 14:24:05,3483
2016/04/03 14:57:45,2016/04/03 15:55:45,3480
2016/04/03 16:29:27,2016/04/03 17:27:25,3478
2016/04/03 18:01:09,2016/04/03 18:59:04,3475
2016/04/03 19:32:52,2016/04/03 20:30:44,3472
2016/04/03 21:04:34,2016/04/03 22:02:24,3470
2016/04/03 22:36:16,2016/04/03 23:34:03,3467
2016/04/04 00:07:58,2016/04/04 01:05:43,3465
2016/04/04 01:39:40,2016/04/04 02:37:22,3462
2016/04/04 03:11:22,2016/04/04 04:09:02,3460
2016/04/04 04:43:04,2016/04/04 05:40:41,3457
2016/04/04 06:14:46,2016/04/04 07:12:21,3455
2016/04/04 07:46:27,2016/04/04 08:44:00,3453
2016/04/04 09:18:09,2016/04/04 10:15:40,3451
2016/04/04 10:49:51,2016/04/04 11:47:19,3448
2016/04/04 12:21:32,2016/04/04 13:18:58,3446
2016/04/04 13:53:14,2016/04/04 14:50:37,3443
2016/04/04 15:24:55,2016/04/04 16:22:17,3442
2016/04/04 16:56:37,2016/04/04 17:53:56,3439
2016/04/04 18:28:18,2016/04/04 19:25:35,3437
2016/04/04 19:59:59,2016/04/04 20:57:14,3435
2016/04/04 21:31:40,2016/04/04 22:28:53,3433
2016/04/04 23:03:22,2016/04/05 00:00:32,3430
2016/04/05 00:35:03,2016/04/05 01:32:11,3428
2016/04/05 02:06:44,2016/04/05 03:03:50,3426
2016/04/05 03:38:25,2016/04/05 04:35:29,3424
2016/04/05 05:10:06,2016/04/05 06:07:08,3422
2016/04/05 06:41:46,2016/04/05 07:38:47,3421
2016/04/05 08:13:27,2016/04/05 09:10:26,3419
2016/04/05 09:45:08,2016/04/05 10:42:04,3416
2016/04/05 11:16:49,2016/04/05 12:13:43,3414
2016/04/05 12:48:29,2016/04/05 13:45:22,3413
2016/04/05 14:20:10,2016/04/05 15:17:01,3411
2016/04/05 15:51:51,2016/04/05 16:48:39,3408
2016/04/05 17:23:31,2016/04/05 18:20:18,3407
2016/04/05 18:55:11,2016/04/05 19:51:56,3405
2016/04/05 20:26:52,2016/04/05 21:23:35,3403
2016/04/05 21:58:32,2016/04/05 22:55:14,3402
2016/04/05 23:30:12,2016/04/06 00:26:52,3400
2016/04/06 01:01:53,2016/04/06 01:58:31,3398
2016/04/06 02:33:33,2016/04/06 03:30:09,3396
2016/04/06 04:05:13,2016/04/06 05:01:47,3394
2016/04/06 05:36:53,2016/04/06 06:33:26,3393
2016/04/06 07:08:33,2016/04/06 08:05:04,3391
2016/04/06 08:40:13,2016/04/06 09:36:43,3390
2016/04/06 10:11:53,2016/04/06 11:08:21,3388
2016/04/06 11:43:33,2016/04/06 12:39:59,3386
2016/04/06 13:15:13,2016/04/06 14:11:37,3384
2016/04/06 14:46:52,2016/04/06 15:43:16,3384
2016/04/06 16:18:32,2016/04/06 17:14:54,3382
2016/04/06 17:50:12,2016/04/06 18:46:32,3380
2016/04/06 19:21:51,2016/04/06 20:18:10,3379
2016/04/06 20:53:31,2016/04/06 21:49:48,3377
2016/04/06 22:25:11,2016/04/06 23:21:26,3375
2016/04/06 23:56:50,2016/04/07 00:53:04,3374
2016/04/07 01:28:30,2016/04/07 02:24:42,3372
2016/04/07 03:00:09,2016/04/07 03:56:21,3372
2016/04/07 04:31:48,2016/04/07 05:27:59,3371
2016/04/07 06:03:28,2016/04/07 06:59:36,3368
2016/04/07 07:35:07,2016/04/07 08:31:14,3367
2016/04/07 09:06:46,2016/04/07 10:02:52,3366
2016/04/07 10:38:25,2016/04/07 11:34:30,3365
2016/04/07 12:10:04,2016/04/07 13:06:08,3364
2016/04/07 13:41:44,2016/04/07 14:37:46,3362
2016/04/07 15:13:23,2016/04/07 16:09:24,3361
2016/04/07 16:45:02,2016/04/07 17:41:02,3360
2016/04/07 18:16:41,2016/04/07 19:12:39,3358
2016/04/07 19:48:20,2016/04/07 20:44:17,3357
2016/04/07 21:19:58,2016/04/07 22:15:55,3357
2016/04/07 22:51:37,2016/04/07 23:47:33,3356
2016/04/08 00:23:16,2016/04/08 01:19:10,3354
2016/04/08 01:54:55,2016/04/08 02:50:48,3353
2016/04/08 03:26:34,2016/04/08 04:22:26,3352
2016/04/08 04:58:12,2016/04/08 05:54:03,3351
2016/04/08 06:29:51,2016/04/08 07:25:41,3350
2016/04/08 08:01:30,2016/04/08 08:57:19,3349
2016/04/08 09:33:08,2016/04/08 10:28:56,3348
2016/04/08 11:04:47,2016/04/08 12:00:34,3347
2016/04/08 12:36:25,2016/04/08 13:32:11,3346
2016/04/08 14:08:04,2016/04/08 15:03:49,3345
2016/04/08 15:39:42,2016/04/08 16:35:26,3344
2016/04/08 17:11:20,2016/04/08 18:07:04,3344
2016/04/08 18:42:59,2016/04/08 19:38:41,3342
2016/04/08 20:14:37,2016/04/08 21:10:19,3342
2016/04/08 21:46:15,2016/04/08 22:41:56,3341
2016/04/08 23:17:54,2016/04/09 00:13:33,3339
2016/04/09 00:49:32,2016/04/09 01:45:11,3339
2016/04/09 02:21:10,2016/04/09 03:16:48,3338
2016/04/09 03:52:48,2016/04/09 04:48:25,3337
2016/04/09 05:24:26,2016/04/09 06:20:03,3337
2016/04/09 06:56:04,2016/04/09 07:51:40,3336
2016/04/09 08:27:42,2016/04/09 09:23:17,3335
2016/04/09 09:59:20,2016/04/09 10:54:55,3335
2016/04/09 11:30:58,2016/04/09 12:26:32,3334
2016/04/09 13:02:36,2016/04/09 13:58:09,3333
2016/04/09 14:34:14,2016/04/09 15:29:46,3332
2016/04/09 16:05:52,2016/04/09 17:01:23,3331
2016/04/09 17:37:30,2016/04/09 18:33:01,3331
2016/04/09 19:09:07,2016/04/09 20:04:38,3331
2016/04/09 20:40:45,2016/04/09 21:36:15,3330
2016/04/09 22:12:23,2016/04/09 23:07:52,3329
2016/04/09 23:44:01,2016/04/10 00:39:29,3328
2016/04/10 01:15:38,2016/04/10 02:11:06,3328
2016/04/10 02:47:16,2016/04/10 03:42:43,3327
2016/04/10 04:18:53,2016/04/10 05:14:20,3327
2016/04/10 05:50:31,2016/04/10 06:45:58,3327
2016/04/10 07:22:09,2016/04/10 08:17:35,3326
2016/04/10 08:53:46,2016/04/10 09:49:12,3326
2016/04/10 10:25:24,2016/04/10 11:20:49,3325
2016/04/10 11:57:01,2016/04/10 12:52:26,3325
2016/04/10 13:28:38,2016/04/10 14:24:03,3325
2016/04/10 15:00:16,2016/04/10 15:55:40,3324
2016/04/10 16:31:53,2016/04/10 17:27:16,3323
2016/04/10 18:03:30,2016/04/10 18:58:53,3323
2016/04/10 19:35:08,2016/04/10 20:30:30,3322
2016/04/10 21:06:45,2016/04/10 22:02:07,3322
2016/04/10 22:38:22,2016/04/10 23:33:44,3322
2016/04/11 00:09:59,2016/04/11 01:05:21,3322
2016/04/11 01:41:37,2016/04/11 02:36:58,3321
2016/04/11 03:13:14,2016/04/11 04:08:35,3321
2016/04/11 04:44:51,2016/04/11 05:40:12,3321
2016/04/11 06:16:28,2016/04/11 07:11:48,3320
2016/04/11 07:48:05,2016/04/11 08:43:25,3320
2016/04/11 09:19:42,2016/04/11 10:15:02,3320
2016/04/11 10:51:19,2016/04/11 11:46:39,3320
2016/04/11 12:22:56,2016/04/11 13:18:16,3320
2016/04/11 13:54:33,2016/04/11 14:49:52,3319
2016/04/11 15:26:10,2016/04/11 16:21:29,3319
2016/04/11 16:57:47,2016/04/11 17:53:06,3319
2016/04/11 18:29:24,2016/04/11 19:24:43,3319
2016/04/11 20:01:01,2016/04/11 20:56:19,3318
2016/04/11 21:32:38,2016/04/11 22:27:56,3318
2016/04/11 23:04:14,2016/04/11 23:59:33,3319
2016/04/12 00:35:51,2016/04/12 01:31:09,3318
2016/04/12 02:07:28,2016/04/12 03:02:46,3318
2016/04/12 03:39:05,2016/04/12 04:34:23,3318
2016/04/12 05:10:41,2016/04/12 06:05:59,3318
2016/04/12 06:42:18,2016/04/12 07:37:36,3318
2016/04/12 08:13:55,2016/04/12 09:09:13,3318
2016/04/12 09:45:31,2016/04/12 10:40:49,3318
2016/04/12 11:17:08,2016/04/12 12:12:26,3318
2016/04/12 12:48:44,2016/04/12 13:44:03,3319
2016/04/12 14:20:21,2016/04/12 15:15:39,3318
2016/04/12 15:51:58,2016/04/12 16:47:16,3318
2016/04/12 17:23:34,2016/04/12 18:18:52,3318
2016/04/12 18:55:11,2016/04/12 19:50:29,3318
2016/04/12 20:26:47,2016/04/12 21:22:05,3318
2016/04/12 21:58:24,2016/04/12 22:53:42,3318
2016/04/12 23:30:00,2016/04/13 00:25:19,3319
2016/04/13 01:01:36,2016/04/13 01:56:55,3319
2016/04/13 02:33:13,2016/04/13 03:28:32,3319
2016/04/13 04:04:49,2016/04/13 05:00:08,3319
2016/04/13 05:36:26,2016/04/13 06:31:45,3319
2016/04/13 07:08:02,2016/04/13 08:03:21,3319
2016/04/13 08:39:38,2016/04/13 09:34:58,3320
2016/04/13 10:11:14,2016/04/13 11:06:34,3320
2016/04/13 11:42:51,2016/04/13 12:38:11,3320
2016/04/13 13:14:27,2016/04/13 14:09:47,3320
2016/04/13 14:46:03,2016/04/13 15:41:24,3321
2016/04/13 16:17:39,2016/04/13 17:13:00,3321
2016/04/13 17:49:16,2016/04/13 18:44:37,3321
2016/04/13 19:20:52,2016/04/13 20:16:13,3321
2016/04/13 20:52:28,2016/04/13 21:47:49,3321
2016/04/13 22:24:04,2016/04/13 23:19:26,3322
2016/04/13 23:55:40,2016/04/14 00:51:02,3322
2016/04/14 01:27:16,2016/04/14 02:22:39,3323
2016/04/14 02:58:52,2016/04/14 03:54:15,3323
2016/04/14 04:30:28,2016/04/14 05:25:52,3324
2016/04/14 06:02:04,2016/04/14 06:57:28,3324
2016/04/14 07:33:40,2016/04/14 08:29:04,3324
2016/04/14 09:05:16,2016/04/14 10:00:41,3325
2016/04/14 10:36:52,2016/04/14 11:32:17,3325
2016/04/14 12:08:28,2016/04/14 13:03:54,3326
2016/04/14 13:40:04,2016/04/14 14:35:30,3326
2016/04/14 15:11:40,2016/04/14 16:07:06,3326
2016/04/14 16:43:16,2016/04/14 17:38:43,3327
2016/04/14 18:14:52,2016/04/14 19:10:19,3327
2016/04/14 19:46:28,2016/04/14 20:41:56,3328
2016/04/14 21:18:04,2016/04/14 22:13:32,3328
2016/04/14 22:49:40,2016/04/14 23:45:08,3328
2016/04/15 00:21:16,2016/04/15 01:16:45,3329
2016/04/15 01:52:52,2016/04/15 02:48:21,3329
2016/04/15 03:24:27,2016/04/15 04:19:57,3330
2016/04/15 04:56:03,2016/04/15 05:51:34,3331
2016/04/15 06:27:39,2016/04/15 07:23:10,3331
2016/04/15 07:59:15,2016/04/15 08:54:47,3332
2016/04/15 09:30:50,2016/04/15 10:26:23,3333
2016/04/15 11:02:26,2016/04/15 11:57:59,3333
2016/04/15 12:34:02,2016/04/15 13:29:36,3334
2016/04/15 14:05:38,2016/04/15 15:01:12,3334
2016/04/15 15:37:13,2016/04/15 16:32:48,3335
2016/04/15 17:08:49,2016/04/15 18:04:25,3336
2016/04/15 18:40:25,2016/04/15 19:36:01,3336
2016/04/15 20:12:00,2016/04/15 21:07:37,3337
2016/04/15 21:43:36,2016/04/15 22:39:14,3338
2016/04/15 23:15:12,2016/04/16 00:10:50,3338
2016/04/16 00:46:47,2016/04/16 01:42:26,3339
2016/04/16 02:18:23,2016/04/16 03:14:03,3340
2016/04/16 03:49:59,2016/04/16 04:45:39,3340
2016/04/16 05:21:34,2016/04/16 06:17:15,3341
2016/04/16 06:53:10,2016/04/16 07:48:52,3342
2016/04/16 08:24:45,2016/04/16 09:20:28,3343
2016/04/16 09:56:21,2016/04/16 10:52:05,3344
2016/04/16 11:27:57,2016/04/16 12:23:41,3344
2016/04/16 12:59:32,2016/04/16 13:55:17,3345
2016/04/16 14:31:08,2016/04/16 15:26:54,3346
2016/04/16 16:02:43,2016/04/16 16:58:30,3347
2016/04/16 17:34:19,2016/04/16 18:30:06,3347
2016/04/16 19:05:54,2016/04/16 20:01:43,3349
2016/04/16 20:37:30,2016/04/16 21:33:19,3349
2016/04/16 22:09:05,2016/04/16 23:04:55,3350
2016/04/16 23:40:41,2016/04/17 00:36:32,3351
2016/04/17 01:12:16,2016/04/17 02:08:08,3352
2016/04/17 02:43:52,2016/04/17 03:39:45,3353
2016/04/17 04:15:27,2016/04/17 05:11:21,3354
2016/04/17 05:47:03,2016/04/17 06:42:57,3354
2016/04/17 07:18:38,2016/04/17 08:14:34,3356
2016/04/17 08:50:14,2016/04/17 09:46:10,3356
2016/04/17 10:21:49,2016/04/17 11:17:46,3357
2016/04/17 11:53:24,2016/04/17 12:49:23,3359
2016/04/17 13:25:00,2016/04/17 14:20:59,3359
2016/04/17 14:56:35,2016/04/17 15:52:36,3361
2016/04/17 16:28:11,2016/04/17 17:24:12,3361
2016/04/17 17:59:46,2016/04/17 18:55:48,3362
2016/04/17 19:31:22,2016/04/17 20:27:25,3363
2016/04/17 21:02:57,2016/04/17 21:59:01,3364
2016/04/17 22:34:32,2016/04/17 23:30:38,3366
2016/04/18 00:06:08,2016/04/18 01:02:14,3366
2016/04/18 01:37:43,2016/04/18 02:33:51,3368
2016/04/18 03:09:19,2016/04/18 04:05:27,3368
2016/04/18 04:40:54,2016/04/18 05:37:03,3369
2016/04/18 06:12:29,2016/04/18 07:08:40,3371
2016/04/18 07:44:05,2016/04/18 08:40:16,3371
2016/04/18 09:15:40,2016/04/18 10:11:53,3373
2016/04/18 10:47:15,2016/04/18 11:43:29,3374
2016/04/18 12:18:51,2016/04/18 13:15:06,3375
2016/04/18 13:50:26,2016/04/18 14:46:42,3376
2016/04/18 15:22:02,2016/04/18 16:18:19,3377
2016/04/18 16:53:37,2016/04/18 17:49:55,3378
2016/04/18 18:25:12,2016/04/18 19:21:31,3379
2016/04/18 19:56:48,2016/04/18 20:53:08,3380
2016/04/18 21:28:23,2016/04/18 22:24:44,3381
2016/04/18 22:59:58,2016/04/18 23:56:21,3383
2016/04/19 00:31:34,2016/04/19 01:27:57,3383
2016/04/19 02:03:09,2016/04/19 02:59:34,3385
2016/04/19 03:34:44,2016/04/19 04:31:10,3386
2016/04/19 05:06:20,2016/04/19 06:02:47,3387
2016/04/19 06:37:55,2016/04/19 07:34:23,3388
2016/04/19 08:09:31,2016/04/19 09:06:00,3389
2016/04/19 09:41:06,2016/04/19 10:37:36,3390
2016/04/19 11:12:41,2016/04/19 12:09:13,3392
2016/04/19 12:44:17,2016/04/19 13:40:50,3393
2016/04/19 14:15:52,2016/04/19 15:12:26,3394
2016/04/19 15:47:27,2016/04/19 16:44:03,3396
2016/04/19 17:19:03,2016/04/19 18:15:39,3396
2016/04/19 18:50:38,2016/04/19 19:47:16,3398
2016/04/19 20:22:14,2016/04/19 21:18:52,3398
2016/04/19 21:53:49,2016/04/19 22:50:29,3400
2016/04/19 23:25:24,2016/04/20 00:22:05,3401
2016/04/20 00:57:00,2016/04/20 01:53:42,3402
2016/04/20 02:28:35,2016/04/20 03:25:18,3403
2016/04/20 04:00:10,2016/04/20 04:56:55,3405
2016/04/20 05:31:46,2016/04/20 06:28:32,3406
2016/04/20 07:03:21,2016/04/20 08:00:08,3407
2016/04/20 08:34:57,2016/04/20 09:31:45,3408
2016/04/20 10:06:32,2016/04/20 11:03:21,3409
2016/04/20 11:38:08,2016/04/20 12:34:58,3410
2016/04/20 13:09:43,2016/04/20 14:06:35,3412
2016/04/20 14:41:18,2016/04/20 15:38:11,3413
2016/04/20 16:12:54,2016/04/20 17:09:48,3414
2016/04/20 17:44:29,2016/04/20 18:41:24,3415
2016/04/20 19:16:05,2016/04/20 20:13:01,3416
2016/04/20 20:47:40,2016/04/20 21:44:38,3418
2016/04/20 22:19:16,2016/04/20 23:16:14,3418
2016/04/20 23:50:51,2016/04/21 00:47:51,3420
2016/04/21 01:22:27,2016/04/21 02:19:27,3420
2016/04/21 02:54:02,2016/04/21 03:51:04,3422
2016/04/21 04:25:37,2016/04/21 05:22:41,3424
2016/04/21 05:57:13,2016/04/21 06:54:17,3424
2016/04/21 07:28:48,2016/04/21 08:25:54,3426
2016/04/21 09:00:24,2016/04/21 09:57:31,3427
2016/04/21 10:31:59,2016/04/21 11:29:07,3428
2016/04/21 12:03:35,2016/04/21 13:00:44,3429
2016/04/21 13:35:10,2016/04/21 14:32:20,3430
2016/04/21 15:06:46,2016/04/21 16:03:57,3431
2016/04/21 16:38:22,2016/04/21 17:35:34,3432
2016/04/21 18:09:57,2016/04/21 19:07:10,3433
2016/04/21 19:41:33,2016/04/21 20:38:47,3434
2016/04/21 21:13:08,2016/04/21 22:10:23,3435
2016/04/21 22:44:44,2016/04/21 23:42:00,3436
2016/04/22 00:16:19,2016/04/22 01:13:37,3438
2016/04/22 01:47:55,2016/04/22 02:45:13,3438
2016/04/22 03:19:30,2016/04/22 04:16:50,3440
2016/04/22 04:51:06,2016/04/22 05:48:26,3440
2016/04/22 06:22:42,2016/04/22 07:20:03,3441
2016/04/22 07:54:17,2016/04/22 08:51:40,3443
2016/04/22 09:25:53,2016/04/22 10:23:16,3443
2016/04/22 10:57:28,2016/04/22 11:54:53,3445
2016/04/22 12:29:04,2016/04/22 13:26:29,3445
2016/04/22 14:00:40,2016/04/22 14:58:06,3446
2016/04/22 15:32:15,2016/04/22 16:29:42,3447
2016/04/22 17:03:51,2016/04/22 18:01:19,3448
2016/04/22 18:35:27,2016/04/22 19:32:55,3448
2016/04/22 20:07:02,2016/04/22 21:04:32,3450
2016/04/22 21:38:38,2016/04/22 22:36:08,3450
2016/04/22 23:10:14,2016/04/23 00:07:45,3451
2016/04/23 00:41:49,2016/04/23 01:39:21,3452
2016/04/23 02:13:25,2016/04/23 03:10:58,3453
2016/04/23 03:45:01,2016/04/23 04:42:34,3453
2016/04/23 05:16:36,2016/04/23 06:14:11,3455
2016/04/23 06:48:12,2016/04/23 07:45:47,3455
2016/04/23 08:19:48,2016/04/23 09:17:23,3455
2016/04/23 09:51:23,2016/04/23 10:49:00,3457
2016/04/23 11:22:59,2016/04/23 12:20:36,3457
2016/04/23 12:54:35,2016/04/23 13:52:13,3458
2016/04/23 14:26:10,2016/04/23 15:23:49,3459
2016/04/23 15:57:46,2016/04/23 16:55:25,3459
2016/04/23 17:29:22,2016/04/23 18:27:02,3460
2016/04/23 19:00:58,2016/04/23 19:58:38,3460
2016/04/23 20:32:33,2016/04/23 21:30:14,3461
2016/04/23 22:04:09,2016/04/23 23:01:50,3461
2016/04/23 23:35:45,2016/04/24 00:33:27,3462
2016/04/24 01:07:21,2016/04/24 02:05:03,3462
2016/04/24 02:38:56,2016/04/24 03:36:39,3463
2016/04/24 04:10:32,2016/04/24 05:08:15,3463
2016/04/24 05:42:08,2016/04/24 06:39:51,3463
2016/04/24 07:13:43,2016/04/24 08:11:28,3465
2016/04/24 08:45:19,2016/04/24 09:43:04,3465
2016/04/24 10:16:55,2016/04/24 11:14:40,3465
2016/04/24 11:48:31,2016/04/24 12:46:16,3465
2016/04/24 13:20:06,2016/04/24 14:17:52,3466
2016/04/24 14:51:42,2016/04/24 15:49:28,3466
2016/04/24 16:23:18,2016/04/24 17:21:04,3466
2016/04/24 17:54:53,2016/04/24 18:52:40,3467
2016/04/24 19:26:29,2016/04/24 20:24:16,3467
2016/04/24 20:58:05,2016/04/24 21:55:51,3466
2016/04/24 22:29:41,2016/04/24 23:27:27,3466
2016/04/25 00:01:16,2016/04/25 00:59:03,3467
2016/04/25 01:32:52,2016/04/25 02:30:39,3467
2016/04/25 03:04:28,2016/04/25 04:02:15,3467
2016/04/25 04:36:03,2016/04/25 05:33:50,3467
2016/04/25 06:07:39,2016/04/25 07:05:26,3467
2016/04/25 07:39:15,2016/04/25 08:37:02,3467
2016/04/25 09:10:50,2016/04/25 10:08:37,3467
2016/04/25 10:42:26,2016/04/25 11:40:13,3467
2016/04/25 12:14:02,2016/04/25 13:11:48,3466
2016/04/25 13:45:37,2016/04/25 14:43:24,3467
2016/04/25 15:17:13,2016/04/25 16:14:59,3466
2016/04/25 16:48:48,2016/04/25 17:46:35,3467
2016/04/25 18:20:24,2016/04/25 19:18:10,3466
2016/04/25 19:52:00,2016/04/25 20:49:46,3466
2016/04/25 21:23:35,2016/04/25 22:21:21,3466
2016/04/25 22:55:11,2016/04/25 23:52:56,3465
2016/04/26 00:26:46,2016/04/26 01:24:31,3465
2016/04/26 01:58:22,2016/04/26 02:56:07,3465
2016/04/26 03:29:57,2016/04/26 04:27:42,3465
2016/04/26 05:01:33,2016/04/26 05:59:17,3464
2016/04/26 06:33:08,2016/04/26 07:30:52,3464
2016/04/26 08:04:43,2016/04/26 09:02:27,3464
2016/04/26 09:36:19,2016/04/26 10:34:02,3463
2016/04/26 11:07:54,2016/04/26 12:05:37,3463
2016/04/26 12:39:30,2016/04/26 13:37:12,3462
2016/04/26 14:11:05,2016/04/26 15:08:47,3462
2016/04/26 15:42:40,2016/04/26 16:40:21,3461
2016/04/26 17:14:16,2016/04/26 18:11:56,3460
2016/04/26 18:45:51,2016/04/26 19:43:31,3460
2016/04/26 20:17:26,2016/04/26 21:15:06,3460
2016/04/26 21:49:01,2016/04/26 22:46:40,3459
2016/04/26 23:20:37,2016/04/27 00:18:15,3458
2016/04/27 00:52:12,2016/04/27 01:49:49,3457
2016/04/27 02:23:47,2016/04/27 03:21:24,3457
2016/04/27 03:55:22,2016/04/27 04:52:58,3456
2016/04/27 05:26:57,2016/04/27 06:24:32,3455
2016/04/27 06:58:32,2016/04/27 07:56:07,3455
2016/04/27 08:30:07,2016/04/27 09:27:41,3454
2016/04/27 10:01:42,2016/04/27 10:59:15,3453
2016/04/27 11:33:17,2016/04/27 12:30:49,3452
2016/04/27 13:04:52,2016/04/27 14:02:24,3452
2016/04/27 14:36:27,2016/04/27 15:33:58,3451
2016/04/27 16:08:02,2016/04/27 17:05:32,3450
2016/04/27 17:39:37,2016/04/27 18:37:06,3449
2016/04/27 19:11:12,2016/04/27 20:08:40,3448
2016/04/27 20:42:46,2016/04/27 21:40:13,3447
2016/04/27 22:14:21,2016/04/27 23:11:47,3446
2016/04/27 23:45:56,2016/04/28 00:43:21,3445
2016/04/28 01:17:30,2016/04/28 02:14:55,3445
2016/04/28 02:49:05,2016/04/28 03:46:28,3443
2016/04/28 04:20:40,2016/04/28 05:18:02,3442
2016/04/28 05:52:14,2016/04/28 06:49:36,3442
2016/04/28 07:23:49,2016/04/28 08:21:09,3440
2016/04/28 08:55:23,2016/04/28 09:52:43,3440
2016/04/28 10:26:58,2016/04/28 11:24:16,3438
2016/04/28 11:58:32,2016/04/28 12:55:49,3437
2016/04/28 13:30:06,2016/04/28 14:27:23,3437
2016/04/28 15:01:41,2016/04/28 15:58:56,3435
2016/04/28 16:33:15,2016/04/28 17:30:29,3434
2016/04/28 18:04:49,2016/04/28 19:02:02,3433
2016/04/28 19:36:24,2016/04/28 20:33:35,3431
2016/04/28 21:07:58,2016/04/28 22:05:08,3430
2016/04/28 22:39:32,2016/04/28 23:36:41,3429
2016/04/29 00:11:06,2016/04/29 01:08:14,3428
2016/04/29 01:42:40,2016/04/29 02:39:47,3427
2016/04/29 03:14:14,2016/04/29 04:11:20,3426
2016/04/29 04:45:48,2016/04/29 05:42:53,3425
2016/04/29 06:17:22,2016/04/29 07:14:25,3423
2016/04/29 07:48:56,2016/04/29 08:45:58,3422
2016/04/29 09:20:29,2016/04/29 10:17:31,3422
2016/04/29 10:52:03,2016/04/29 11:49:03,3420
2016/04/29 12:23:37,2016/04/29 13:20:36,3419
2016/04/29 13:55:10,2016/04/29 14:52:08,3418
2016/04/29 15:26:44,2016/04/29 16:23:40,3416
2016/04/29 16:58:18,2016/04/29 17:55:13,3415
2016/04/29 18:29:51,2016/04/29 19:26:45,3414
2016/04/29 20:01:25,2016/04/29 20:58:17,3412
2016/04/29 21:32:58,2016/04/29 22:29:50,3412
2016/04/29 23:04:31,2016/04/30 00:01:22,3411
2016/04/30 00:36:05,2016/04/30 01:32:54,3409
2016/04/30 02:07:38,2016/04/30 03:04:26,3408
2016/04/30 03:39:11,2016/04/30 04:35:58,3407
2016/04/30 05:10:44,2016/04/30 06:07:30,3406
2016/04/30 06:42:17,2016/04/30 07:39:02,3405
2016/04/30 08:13:51,2016/04/30 09:10:33,3402
2016/04/30 09:45:24,2016/04/30 10:42:05,3401
2016/04/30 11:16:57,2016/04/30 12:13:37,3400
2016/04/30 12:48:29,2016/04/30 13:45:09,3400
2016/04/30 14:20:02,2016/04/30 15:16:40,3398
2016/04/30 15:51:35,2016/04/30 16:48:12,3397
2016/04/30 17:23:08,2016/04/30 18:19:43,3395
2016/04/30 18:54:41,2016/04/30 19:51:15,3394
2016/04/30 20:26:13,2016/04/30 21:22:46,3393
2016/04/30 21:57:46,2016/04/30 22:54:18,3392
2016/04/30 23:29:19,2016/05/01 00:25:49,3390
2016/05/01 01:00:51,2016/05/01 01:57:20,3389
2016/05/01 02:32:24,2016/05/01 03:28:51,3387
2016/05/01 04:03:56,2016/05/01 05:00:23,3387
2016/05/01 05:35:28,2016/05/01 06:31:54,3386
2016/05/01 07:07:01,2016/05/01 08:03:25,3384
2016/05/01 08:38:33,2016/05/01 09:34:56,3383
2016/05/01 10:10:05,2016/05/01 11:06:27,3382
2016/05/01 11:41:37,2016/05/01 12:37:58,3381
2016/05/01 13:13:09,2016/05/01 14:09:29,3380
2016/05/01 14:44:41,2016/05/01 15:41:00,3379
2016/05/01 16:16:13,2016/05/01 17:12:30,3377
2016/05/01 17:47:45,2016/05/01 18:44:01,3376
2016/05/01 19:19:17,2016/05/01 20:15:32,3375
2016/05/01 20:50:49,2016/05/01 21:47:02,3373
2016/05/01 22:22:21,2016/05/01 23:18:33,3372
2016/05/01 23:53:53,2016/05/02 00:50:04,3371
2016/05/02 01:25:24,2016/05/02 02:21:34,3370
2016/05/02 02:56:56,2016/05/02 03:53:05,3369
2016/05/02 04:28:28,2016/05/02 05:24:35,3367
2016/05/02 05:59:59,2016/05/02 06:56:05,3366
2016/05/02 07:31:31,2016/05/02 08:27:36,3365
2016/05/02 09:03:02,2016/05/02 09:59:06,3364
2016/05/02 10:34:33,2016/05/02 11:30:36,3363
2016/05/02 12:06:05,2016/05/02 13:02:07,3362
2016/05/02 13:37:36,2016/05/02 14:33:37,3361
2016/05/02 15:09:07,2016/05/02 16:05:07,3360
2016/05/02 16:40:38,2016/05/02 17:36:37,3359
2016/05/02 18:12:09,2016/05/02 19:08:07,3358
2016/05/02 19:43:41,2016/05/02 20:39:37,3356
2016/05/02 21:15:12,2016/05/02 22:11:07,3355
2016/05/02 22:46:43,2016/05/02 23:42:37,3354
2016/05/03 00:18:13,2016/05/03 01:14:07,3354
2016/05/03 01:49:44,2016/05/03 02:45:36,3352
2016/05/03 03:21:15,2016/05/03 04:17:06,3351
2016/05/03 04:52:46,2016/05/03 05:48:36,3350
2016/05/03 06:24:17,2016/05/03 07:20:06,3349
2016/05/03 07:55:47,2016/05/03 08:51:35,3348
2016/05/03 09:27:18,2016/05/03 10:23:05,3347
2016/05/03 10:58:48,2016/05/03 11:54:34,3346
2016/05/03 12:30:19,2016/05/03 13:26:04,3345
2016/05/03 14:01:49,2016/05/03 14:57:33,3344
2016/05/03 15:33:20,2016/05/03 16:29:03,3343
2016/05/03 17:04:50,2016/05/03 18:00:32,3342
2016/05/03 18:36:21,2016/05/03 19:32:02,3341
2016/05/03 20:07:51,2016/05/03 21:03:31,3340
2016/05/03 21:39:21,2016/05/03 22:35:00,3339
2016/05/03 23:10:51,2016/05/04 00:06:30,3339
2016/05/04 00:42:21,2016/05/04 01:37:59,3338
2016/05/04 02:13:51,2016/05/04 03:09:28,3337
2016/05/04 03:45:21,2016/05/04 04:40:57,3336
2016/05/04 05:16:51,2016/05/04 06:12:26,3335
2016/05/04 06:48:21,2016/05/04 07:43:55,3334
2016/05/04 08:19:51,2016/05/04 09:15:24,3333
2016/05/04 09:51:21,2016/05/04 10:46:53,3332
2016/05/04 11:22:51,2016/05/04 12:18:22,3331
2016/05/04 12:54:20,2016/05/04 13:49:51,3331
2016/05/04 14:25:50,2016/05/04 15:21:20,3330
2016/05/04 15:57:20,2016/05/04 16:52:49,3329
2016/05/04 17:28:49,2016/05/04 18:24:18,3329
2016/05/04 19:00:19,2016/05/04 19:55:46,3327
2016/05/04 20:31:48,2016/05/04 21:27:15,3327
2016/05/04 22:03:18,2016/05/04 22:58:44,3326
2016/05/04 23:34:47,2016/05/05 00:30:13,3326
2016/05/05 01:06:16,2016/05/05 02:01:41,3325
2016/05/05 02:37:46,2016/05/05 03:33:10,3324
2016/05/05 04:09:15,2016/05/05 05:04:38,3323
2016/05/05 05:40:44,2016/05/05 06:36:07,3323
2016/05/05 07:12:13,2016/05/05 08:07:35,3322
2016/05/05 08:43:42,2016/05/05 09:39:04,3322
2016/05/05 10:15:12,2016/05/05 11:10:32,3320
2016/05/05 11:46:41,2016/05/05 12:42:01,3320
2016/05/05 13:18:10,2016/05/05 14:13:29,3319
2016/05/05 14:49:38,2016/05/05 15:44:57,3319
2016/05/05 16:21:07,2016/05/05 17:16:26,3319
2016/05/05 17:52:36,2016/05/05 18:47:54,3318
2016/05/05 19:24:05,2016/05/05 20:19:22,3317
2016/05/05 20:55:34,2016/05/05 21:50:50,3316
2016/05/05 22:27:02,2016/05/05 23:22:18,3316
2016/05/05 23:58:31,2016/05/06 00:53:47,3316
2016/05/06 01:30:00,2016/05/06 02:25:15,3315
2016/05/06 03:01:28,2016/05/06 03:56:43,3315
2016/05/06 04:32:57,2016/05/06 05:28:11,3314
2016/05/06 06:04:25,2016/05/06 06:59:39,3314
2016/05/06 07:35:54,2016/05/06 08:31:07,3313
2016/05/06 09:07:22,2016/05/06 10:02:35,3313
2016/05/06 10:38:50,2016/05/06 11:34:03,3313
2016/05/06 12:10:19,2016/05/06 13:05:30,3311
2016/05/06 13:41:47,2016/05/06 14:36:58,3311
2016/05/06 15:13:15,2016/05/06 16:08:26,3311
2016/05/06 16:44:43,2016/05/06 17:39:54,3311
2016/05/06 18:16:11,2016/05/06 19:11:22,3311
2016/05/06 19:47:39,2016/05/06 20:42:49,3310
2016/05/06 21:19:07,2016/05/06 22:14:17,3310
2016/05/06 22:50:35,2016/05/06 23:45:45,3310
2016/05/07 00:22:03,2016/05/07 01:17:12,3309
2016/05/07 01:53:31,2016/05/07 02:48:40,3309
2016/05/07 03:24:59,2016/05/07 04:20:07,3308
2016/05/07 04:56:27,2016/05/07 05:51:35,3308
2016/05/07 06:27:55,2016/05/07 07:23:03,3308
2016/05/07 07:59:22,2016/05/07 08:54:30,3308
2016/05/07 09:30:50,2016/05/07 10:25:58,3308
2016/05/07 11:02:18,2016/05/07 11:57:25,3307
2016/05/07 12:33:45,2016/05/07 13:28:52,3307
2016/05/07 14:05:13,2016/05/07 15:00:20,3307
2016/05/07 15:36:41,2016/05/07 16:31:47,3306
2016/05/07 17:08:08,2016/05/07 18:03:14,3306
2016/05/07 18:39:35,2016/05/07 19:34:42,3307
2016/05/07 20:11:03,2016/05/07 21:06:09,3306
2016/05/07 21:42:30,2016/05/07 22:37:36,3306
2016/05/07 23:13:58,2016/05/08 00:09:03,3305
2016/05/08 00:45:25,2016/05/08 01:40:31,3306
2016/05/08 02:16:52,2016/05/08 03:11:58,3306
2016/05/08 03:48:19,2016/05/08 04:43:25,3306
2016/05/08 05:19:46,2016/05/08 06:14:52,3306
2016/05/08 06:51:14,2016/05/08 07:46:19,3305
2016/05/08 08:22:41,2016/05/08 09:17:46,3305
2016/05/08 09:54:08,2016/05/08 10:49:13,3305
2016/05/08 11:25:35,2016/05/08 12:20:40,3305
2016/05/08 12:57:02,2016/05/08 13:52:07,3305
2016/05/08 14:28:29,2016/05/08 15:23:34,3305
2016/05/08 15:59:55,2016/05/08 16:55:01,3306
2016/05/08 17:31:22,2016/05/08 18:26:28,3306
2016/05/08 19:02:49,2016/05/08 19:57:55,3306
2016/05/08 20:34:16,2016/05/08 21:29:22,3306
2016/05/08 22:05:43,2016/05/08 23:00:49,3306
2016/05/08 23:37:09,2016/05/09 00:32:16,3307
2016/05/09 01:08:36,2016/05/09 02:03:42,3306
2016/05/09 02:40:02,2016/05/09 03:35:09,3307
2016/05/09 04:11:29,2016/05/09 05:06:36,3307
2016/05/09 05:42:56,2016/05/09 06:38:03,3307
2016/05/09 07:14:22,2016/05/09 08:09:29,3307
2016/05/09 08:45:49,2016/05/09 09:40:56,3307
2016/05/09 10:17:15,2016/05/09 11:12:23,3308
2016/05/09 11:48:41,2016/05/09 12:43:49,3308
2016/05/09 13:20:08,2016/05/09 14:15:16,3308
2016/05/09 14:51:34,2016/05/09 15:46:43,3309
2016/05/09 16:23:00,2016/05/09 17:18:09,3309
2016/05/09 17:54:26,2016/05/09 18:49:36,3310
2016/05/09 19:25:53,2016/05/09 20:21:02,3309
2016/05/09 20:57:19,2016/05/09 21:52:29,3310
2016/05/09 22:28:45,2016/05/09 23:23:55,3310
2016/05/10 00:00:11,2016/05/10 00:55:22,3311
2016/05/10 01:31:37,2016/05/10 02:26:48,3311
2016/05/10 03:03:03,2016/05/10 03:58:15,3312
2016/05/10 04:34:29,2016/05/10 05:29:41,3312
2016/05/10 06:05:55,2016/05/10 07:01:08,3313
2016/05/10 07:37:21,2016/05/10 08:32:34,3313
2016/05/10 09:08:47,2016/05/10 10:04:00,3313
2016/05/10 10:40:12,2016/05/10 11:35:27,3315
2016/05/10 12:11:38,2016/05/10 13:06:53,3315
2016/05/10 13:43:04,2016/05/10 14:38:19,3315
2016/05/10 15:14:30,2016/05/10 16:09:46,3316
2016/05/10 16:45:55,2016/05/10 17:41:12,3317
2016/05/10 18:17:21,2016/05/10 19:12:38,3317
2016/05/10 19:48:47,2016/05/10 20:44:04,3317
2016/05/10 21:20:12,2016/05/10 22:15:31,3319
2016/05/10 22:51:38,2016/05/10 23:46:57,3319
2016/05/11 00:23:03,2016/05/11 01:18:23,3320
2016/05/11 01:54:29,2016/05/11 02:49:49,3320
2016/05/11 03:25:54,2016/05/11 04:21:15,3321
2016/05/11 04:57:19,2016/05/11 05:52:42,3323
2016/05/11 06:28:45,2016/05/11 07:24:08,3323
2016/05/11 08:00:10,2016/05/11 08:55:34,3324
2016/05/11 09:31:35,2016/05/11 10:27:00,3325
2016/05/11 11:03:01,2016/05/11 11:58:26,3325
2016/05/11 12:34:26,2016/05/11 13:29:52,3326
2016/05/11 14:05:51,2016/05/11 15:01:18,3327
2016/05/11 15:37:16,2016/05/11 16:32:44,3328
2016/05/11 17:08:41,2016/05/11 18:04:10,3329
2016/05/11 18:40:06,2016/05/11 19:35:36,3330
2016/05/11 20:11:31,2016/05/11 21:07:02,3331
2016/05/11 21:42:56,2016/05/11 22:38:28,3332
2016/05/11 23:14:21,2016/05/12 00:09:54,3333
2016/05/12 00:45:46,2016/05/12 01:41:20,3334
2016/05/12 02:17:11,2016/05/12 03:12:46,3335
2016/05/12 03:48:36,2016/05/12 04:44:12,3336
2016/05/12 05:20:01,2016/05/12 06:15:38,3337
2016/05/12 06:51:26,2016/05/12 07:47:04,3338
2016/05/12 08:22:50,2016/05/12 09:18:30,3340
2016/05/12 09:54:15,2016/05/12 10:49:56,3341
2016/05/12 11:25:40,2016/05/12 12:21:22,3342
2016/05/12 12:57:04,2016/05/12 13:52:47,3343
2016/05/12 14:28:29,2016/05/12 15:24:13,3344
2016/05/12 15:59:54,2016/05/12 16:55:39,3345
2016/05/12 17:31:18,2016/05/12 18:27:05,3347
2016/05/12 19:02:43,2016/05/12 19:58:31,3348
2016/05/12 20:34:07,2016/05/12 21:29:57,3350
2016/05/12 22:05:32,2016/05/12 23:01:22,3350
2016/05/12 23:36:56,2016/05/13 00:32:48,3352
2016/05/13 01:08:21,2016/05/13 02:04:14,3353
2016/05/13 02:39:45,2016/05/13 03:35:40,3355
2016/05/13 04:11:09,2016/05/13 05:07:06,3357
2016/05/13 05:42:34,2016/05/13 06:38:31,3357
2016/05/13 07:13:58,2016/05/13 08:09:57,3359
2016/05/13 08:45:22,2016/05/13 09:41:23,3361
2016/05/13 10:16:46,2016/05/13 11:12:49,3363
2016/05/13 11:48:10,2016/05/13 12:44:14,3364
2016/05/13 13:19:34,2016/05/13 14:15:40,3366
2016/05/13 14:50:59,2016/05/13 15:47:06,3367
2016/05/13 16:22:23,2016/05/13 17:18:32,3369
2016/05/13 17:53:47,2016/05/13 18:49:57,3370
2016/05/13 19:25:11,2016/05/13 20:21:23,3372
2016/05/13 20:56:35,2016/05/13 21:52:49,3374
2016/05/13 22:27:59,2016/05/13 23:24:15,3376
2016/05/13 23:59:22,2016/05/14 00:55:40,3378
2016/05/14 01:30:46,2016/05/14 02:27:06,3380
2016/05/14 03:02:10,2016/05/14 03:58:32,3382
2016/05/14 04:33:34,2016/05/14 05:29:58,3384
2016/05/14 06:04:58,2016/05/14 07:01:23,3385
2016/05/14 07:36:21,2016/05/14 08:32:49,3388
2016/05/14 09:07:45,2016/05/14 10:04:15,3390
2016/05/14 10:39:09,2016/05/14 11:35:41,3392
2016/05/14 12:10:32,2016/05/14 13:07:06,3394
2016/05/14 13:41:56,2016/05/14 14:38:32,3396
2016/05/14 15:13:20,2016/05/14 16:09:58,3398
2016/05/14 16:44:43,2016/05/14 17:41:23,3400
2016/05/14 18:16:07,2016/05/14 19:12:49,3402
2016/05/14 19:47:30,2016/05/14 20:44:15,3405
2016/05/14 21:18:54,2016/05/14 22:15:41,3407
2016/05/14 22:50:17,2016/05/14 23:47:06,3409
2016/05/15 00:21:40,2016/05/15 01:18:32,3412
2016/05/15 01:53:04,2016/05/15 02:49:58,3414
2016/05/15 03:24:27,2016/05/15 04:21:24,3417
2016/05/15 04:55:50,2016/05/15 05:52:50,3420
2016/05/15 06:27:14,2016/05/15 07:24:15,3421
2016/05/15 07:58:37,2016/05/15 08:55:41,3424
2016/05/15 09:30:00,2016/05/15 10:27:07,3427
2016/05/15 11:01:23,2016/05/15 11:58:33,3430
2016/05/15 12:32:46,2016/05/15 13:29:59,3433
2016/05/15 14:04:09,2016/05/15 15:01:25,3436
2016/05/15 15:35:32,2016/05/15 16:32:50,3438
2016/05/15 17:06:55,2016/05/15 18:04:16,3441
2016/05/15 18:38:18,2016/05/15 19:35:42,3444
2016/05/15 20:09:41,2016/05/15 21:07:08,3447
2016/05/15 21:41:04,2016/05/15 22:38:34,3450
2016/05/15 23:12:27,2016/05/16 00:10:00,3453
2016/05/16 00:43:50,2016/05/16 01:41:26,3456
2016/05/16 02:15:13,2016/05/16 03:12:52,3459
2016/05/16 03:46:36,2016/05/16 04:44:18,3462
2016/05/16 05:17:59,2016/05/16 06:15:44,3465
2016/05/16 06:49:21,2016/05/16 07:47:10,3469
2016/05/16 08:20:44,2016/05/16 09:18:36,3472
2016/05/16 09:52:07,2016/05/16 10:50:02,3475
2016/05/16 11:23:29,2016/05/16 12:21:28,3479
2016/05/16 12:54:52,2016/05/16 13:52:54,3482
2016/05/16 14:26:15,2016/05/16 15:24:20,3485
2016/05/16 15:57:37,2016/05/16 16:55:47,3490
2016/05/16 17:29:00,2016/05/16 18:27:13,3493
2016/05/16 19:00:22,2016/05/16 19:58:39,3497
2016/05/16 20:31:45,2016/05/16 21:30:05,3500
2016/05/16 22:03:07,2016/05/16 23:01:31,3504
2016/05/16 23:34:29,2016/05/17 00:32:58,3509
2016/05/17 01:05:52,2016/05/17 02:04:24,3512
2016/05/17 02:37:14,2016/05/17 03:35:51,3517
2016/05/17 04:08:36,2016/05/17 05:07:17,3521
2016/05/17 05:39:59,2016/05/17 06:38:43,3524
2016/05/17 07:11:21,2016/05/17 08:10:10,3529
2016/05/17 08:42:43,2016/05/17 09:41:36,3533
2016/05/17 10:14:05,2016/05/17 11:13:03,3538
2016/05/17 11:45:28,2016/05/17 12:44:30,3542
2016/05/17 13:16:50,2016/05/17 14:15:56,3546
2016/05/17 14:48:12,2016/05/17 15:47:23,3551
2016/05/17 16:19:34,2016/05/17 17:18:50,3556
2016/05/17 17:50:56,2016/05/17 18:50:16,3560
2016/05/17 19:22:18,2016/05/17 20:21:43,3565
2016/05/17 20:53:40,2016/05/17 21:53:10,3570
2016/05/17 22:25:02,2016/05/17 23:24:37,3575
2016/05/17 23:56:24,2016/05/18 00:56:04,3580
2016/05/18 01:27:45,2016/05/18 02:27:31,3586
2016/05/18 02:59:07,2016/05/18 03:58:58,3591
2016/05/18 04:30:29,2016/05/18 05:30:25,3596
2016/05/18 06:01:51,2016/05/18 07:01:52,3601
2016/05/18 07:33:13,2016/05/18 08:33:20,3607
2016/05/18 09:04:34,2016/05/18 10:04:47,3613
2016/05/18 10:35:56,2016/05/18 11:36:14,3618
2016/05/18 12:07:18,2016/05/18 13:07:42,3624
2016/05/18 13:38:39,2016/05/18 14:39:09,3630
2016/05/18 15:10:01,2016/05/18 16:10:37,3636
2016/05/18 16:41:22,2016/05/18 17:42:05,3643
2016/05/18 18:12:44,2016/05/18 19:13:32,3648
2016/05/18 19:44:05,2016/05/18 20:45:00,3655
2016/05/18 21:15:27,2016/05/18 22:16:28,3661
2016/05/18 22:46:48,2016/05/18 23:47:56,3668
2016/05/19 00:18:10,2016/05/19 01:19:24,3674
2016/05/19 01:49:31,2016/05/19 02:50:52,3681
2016/05/19 03:20:52,2016/05/19 04:22:21,3689
2016/05/19 04:52:13,2016/05/19 05:53:49,3696
2016/05/19 06:23:35,2016/05/19 07:25:17,3702
2016/05/19 07:54:56,2016/05/19 08:56:46,3710
2016/05/19 09:26:17,2016/05/19 10:28:15,3718
2016/05/19 10:57:38,2016/05/19 11:59:43,3725
2016/05/19 12:28:59,2016/05/19 13:31:12,3733
2016/05/19 14:00:20,2016/05/19 15:02:41,3741
2016/05/19 15:31:41,2016/05/19 16:34:10,3749
2016/05/19 17:03:02,2016/05/19 18:05:39,3757
2016/05/19 18:34:23,2016/05/19 19:37:09,3766
2016/05/19 20:05:44,2016/05/19 21:08:38,3774
2016/05/19 21:37:05,2016/05/19 22:40:08,3783
2016/05/19 23:08:26,2016/05/20 00:11:37,3791
2016/05/20 00:39:47,2016/05/20 01:43:07,3800
2016/05/20 02:11:08,2016/05/20 03:14:37,3809
2016/05/20 03:42:28,2016/05/20 04:46:07,3819
2016/05/20 05:13:49,2016/05/20 06:17:37,3828
2016/05/20 06:45:10,2016/05/20 07:49:08,3838
2016/05/20 08:16:31,2016/05/20 09:20:38,3847
2016/05/20 09:47:51,2016/05/20 10:52:09,3858
2016/05/20 11:19:12,2016/05/20 12:23:40,3868
2016/05/20 12:50:32,2016/05/20 13:55:11,3879
2016/05/20 14:21:53,2016/05/20 15:26:42,3889
2016/05/20 15:53:13,2016/05/20 16:58:13,3900
2016/05/20 17:24:34,2016/05/20 18:29:45,3911
2016/05/20 18:55:54,2016/05/20 20:01:16,3922
2016/05/20 20:27:14,2016/05/20 21:32:48,3934
2016/05/20 21:58:34,2016/05/20 23:04:20,3946
2016/05/20 23:29:55,2016/05/21 00:35:53,3958
2016/05/21 01:01:15,2016/05/21 02:07:25,3970
2016/05/21 02:32:35,2016/05/21 03:38:58,3983
2016/05/21 04:03:55,2016/05/21 05:10:31,3996
2016/05/21 05:35:15,2016/05/21 06:42:04,4009
2016/05/21 07:06:35,2016/05/21 08:13:38,4023
2016/05/21 08:37:55,2016/05/21 09:45:11,4036
2016/05/21 10:09:15,2016/05/21 11:16:45,4050
2016/05/21 11:40:35,2016/05/21 12:48:19,4064
2016/05/21 13:11:55,2016/05/21 14:19:54,4079
2016/05/21 14:43:15,2016/05/21 15:51:28,4093
2016/05/21 16:14:34,2016/05/21 17:23:03,4109
2016/05/21 17:45:54,2016/05/21 18:54:39,4125
2016/05/21 19:17:13,2016/05/21 20:26:14,4141
2016/05/21 20:48:33,2016/05/21 21:57:50,4157
2016/05/21 22:19:52,2016/05/21 23:29:26,4174
2016/05/21 23:51:12,2016/05/22 01:01:03,4191
2016/05/22 01:22:31,2016/05/22 02:32:40,4209
2016/05/22 02:53:50,2016/05/22 04:04:17,4227
2016/05/22 04:25:10,2016/05/22 05:35:54,4244
2016/05/22 05:56:29,2016/05/22 07:07:32,4263
2016/05/22 07:27:48,2016/05/22 08:39:10,4282
2016/05/22 08:59:07,2016/05/22 10:10:49,4302
2016/05/22 10:30:26,2016/05/22 11:42:28,4322
2016/05/22 12:01:44,2016/05/22 13:14:08,4344
2016/05/22 13:33:03,2016/05/22 14:45:47,4364
2016/05/22 15:04:22,2016/05/22 16:17:28,4386
2016/05/22 16:35:40,2016/05/22 17:49:09,4409
2016/05/22 18:06:59,2016/05/22 19:20:50,4431
2016/05/22 19:38:17,2016/05/22 20:52:31,4454
2016/05/22 21:09:35,2016/05/22 22:24:14,4479
2016/05/22 22:40:53,2016/05/22 23:55:56,4503
2016/05/23 00:12:11,2016/05/23 01:27:40,4529
2016/05/23 01:43:29,2016/05/23 02:59:23,4554
2016/05/23 03:14:46,2016/05/23 04:31:08,4582
2016/05/23 04:46:03,2016/05/23 06:02:53,4610
2016/05/23 06:17:21,2016/05/23 07:34:39,4638
2016/05/23 07:48:37,2016/05/23 09:06:25,4668
2016/05/23 09:19:54,2016/05/23 10:38:12,4698
2016/05/23 10:51:10,2016/05/23 12:10:00,4730
2016/05/23 12:22:26,2016/05/23 13:41:48,4762
2016/05/23 13:53:42,2016/05/23 15:13:38,4796
2016/05/23 15:24:57,2016/05/23 16:45:28,4831
2016/05/23 16:56:12,2016/05/23 18:17:20,4868
2016/05/23 18:27:26,2016/05/23 19:49:12,4906
2016/05/23 19:58:39,2016/05/23 21:21:06,4947
2016/05/23 21:29:52,2016/05/23 22:53:02,4990
2016/05/23 23:01:03,2016/05/24 00:24:59,5036
2016/05/24 00:32:12,2016/05/24 01:56:59,5087
2016/05/24 02:03:20,2016/05/24 03:29:03,5143
2016/05/24 03:34:24,2016/05/24 05:01:13,5209
2016/05/24 05:05:23,2016/05/24 06:33:36,5293
2016/05/24 06:36:09,2016/05/26 15:02:12,203163
2016/05/26 15:05:26,2016/05/26 16:33:03,5257
2016/05/26 16:37:41,2016/05/26 18:04:04,5183
2016/05/26 18:09:47,2016/05/26 19:35:08,5121
2016/05/26 19:41:48,2016/05/26 21:06:16,5068
2016/05/26 21:13:46,2016/05/26 22:37:25,5019
2016/05/26 22:45:41,2016/05/27 00:08:35,4974
2016/05/27 00:17:35,2016/05/27 01:39:47,4932
2016/05/27 01:49:27,2016/05/27 03:10:59,4892
2016/05/27 03:21:17,2016/05/27 04:42:12,4855
2016/05/27 04:53:07,2016/05/27 06:13:25,4818
2016/05/27 06:24:55,2016/05/27 07:44:39,4784
2016/05/27 07:56:43,2016/05/27 09:15:53,4750
2016/05/27 09:28:30,2016/05/27 10:47:08,4718
2016/05/27 11:00:15,2016/05/27 12:18:23,4688
2016/05/27 12:32:00,2016/05/27 13:49:38,4658
2016/05/27 14:03:45,2016/05/27 15:20:53,4628
2016/05/27 15:35:28,2016/05/27 16:52:09,4601
2016/05/27 17:07:11,2016/05/27 18:23:24,4573
2016/05/27 18:38:53,2016/05/27 19:54:40,4547
2016/05/27 20:10:35,2016/05/27 21:25:56,4521
2016/05/27 21:42:16,2016/05/27 22:57:12,4496
2016/05/27 23:13:57,2016/05/28 00:28:28,4471
2016/05/28 00:45:37,2016/05/28 01:59:44,4447
2016/05/28 02:17:16,2016/05/28 03:31:00,4424
2016/05/28 03:48:55,2016/05/28 05:02:16,4401
2016/05/28 05:20:33,2016/05/28 06:33:33,4380
2016/05/28 06:52:11,2016/05/28 08:04:49,4358
2016/05/28 08:23:48,2016/05/28 09:36:05,4337
2016/05/28 09:55:25,2016/05/28 11:07:22,4317
2016/05/28 11:27:02,2016/05/28 12:38:38,4296
2016/05/28 12:58:38,2016/05/28 14:09:55,4277
2016/05/28 14:30:13,2016/05/28 15:41:11,4258
2016/05/28 16:01:49,2016/05/28 17:12:28,4239
2016/05/28 17:33:23,2016/05/28 18:43:45,4222
2016/05/28 19:04:58,2016/05/28 20:15:01,4203
2016/05/28 20:36:32,2016/05/28 21:46:18,4186
2016/05/28 22:08:05,2016/05/28 23:17:35,4170
2016/05/28 23:39:39,2016/05/29 00:48:51,4152
2016/05/29 01:11:11,2016/05/29 02:20:08,4137
2016/05/29 02:42:44,2016/05/29 03:51:25,4121
2016/05/29 04:14:16,2016/05/29 05:22:41,4105
2016/05/29 05:45:48,2016/05/29 06:53:58,4090
2016/05/29 07:17:20,2016/05/29 08:25:15,4075
2016/05/29 08:48:51,2016/05/29 09:56:31,4060
2016/05/29 10:20:22,2016/05/29 11:27:48,4046
2016/05/29 11:51:52,2016/05/29 12:59:05,4033
2016/05/29 13:23:23,2016/05/29 14:30:22,4019
2016/05/29 14:54:53,2016/05/29 16:01:38,4005
2016/05/29 16:26:22,2016/05/29 17:32:55,3993
2016/05/29 17:57:52,2016/05/29 19:04:12,3980
2016/05/29 19:29:21,2016/05/29 20:35:28,3967
2016/05/29 21:00:50,2016/05/29 22:06:45,3955
2016/05/29 22:32:19,2016/05/29 23:38:02,3943
2016/05/30 00:03:47,2016/05/30 01:09:18,3931
2016/05/30 01:35:16,2016/05/30 02:40:35,3919
2016/05/30 03:06:43,2016/05/30 04:11:52,3909
2016/05/30 04:38:11,2016/05/30 05:43:08,3897
2016/05/30 06:09:39,2016/05/30 07:14:25,3886
2016/05/30 07:41:06,2016/05/30 08:45:42,3876
2016/05/30 09:12:33,2016/05/30 10:16:58,3865
2016/05/30 10:44:00,2016/05/30 11:48:15,3855
2016/05/30 12:15:27,2016/05/30 13:19:31,3844
2016/05/30 13:46:53,2016/05/30 14:50:48,3835
2016/05/30 15:18:19,2016/05/30 16:22:05,3826
2016/05/30 16:49:45,2016/05/30 17:53:21,3816
2016/05/30 18:21:11,2016/05/30 19:24:38,3807
2016/05/30 19:52:37,2016/05/30 20:55:54,3797
2016/05/30 21:24:02,2016/05/30 22:27:11,3789
2016/05/30 22:55:28,2016/05/30 23:58:27,3779
2016/05/31 00:26:53,2016/05/31 01:29:44,3771
2016/05/31 01:58:18,2016/05/31 03:01:00,3762
2016/05/31 03:29:42,2016/05/31 04:32:17,3755
2016/05/31 05:01:07,2016/05/31 06:03:33,3746
2016/05/31 06:32:31,2016/05/31 07:34:50,3739
2016/05/31 08:03:56,2016/05/31 09:06:06,3730
2016/05/31 09:35:20,2016/05/31 10:37:22,3722
2016/05/31 11:06:44,2016/05/31 12:08:39,3715
2016/05/31 12:38:08,2016/05/31 13:39:55,3707
2016/05/31 14:09:31,2016/05/31 15:11:11,3700
2016/05/31 15:40:55,2016/05/31 16:42:28,3693
2016/05/31 17:12:18,2016/05/31 18:13:44,3686
2016/05/31 18:43:41,2016/05/31 19:45:00,3679
2016/05/31 20:15:04,2016/05/31 21:16:17,3673
2016/05/31 21:46:27,2016/05/31 22:47:33,3666
2016/05/31 23:17:50,2016/06/01 00:18:49,3659
2016/06/01 00:49:13,2016/06/01 01:50:05,3652
2016/06/01 02:20:35,2016/06/01 03:21:22,3647
2016/06/01 03:51:58,2016/06/01 04:52:38,3640
2016/06/01 05:23:20,2016/06/01 06:23:54,3634
2016/06/01 06:54:42,2016/06/01 07:55:10,3628
2016/06/01 08:26:05,2016/06/01 09:26:26,3621
2016/06/01 09:57:26,2016/06/01 10:57:42,3616
2016/06/01 11:28:48,2016/06/01 12:28:59,3611
2016/06/01 13:00:10,2016/06/01 14:00:15,3605
2016/06/01 14:31:32,2016/06/01 15:31:31,3599
2016/06/01 16:02:53,2016/06/01 17:02:47,3594
2016/06/01 17:34:15,2016/06/01 18:34:03,3588
2016/06/01 19:05:36,2016/06/01 20:05:19,3583
2016/06/01 20:36:57,2016/06/01 21:36:35,3578
2016/06/01 22:08:18,2016/06/01 23:07:51,3573
2016/06/01 23:39:39,2016/06/02 00:39:07,3568
2016/06/02 01:11:00,2016/06/02 02:10:23,3563
2016/06/02 02:42:21,2016/06/02 03:41:39,3558
2016/06/02 04:13:42,2016/06/02 05:12:55,3553
2016/06/02 05:45:02,2016/06/02 06:44:10,3548
2016/06/02 07:16:23,2016/06/02 08:15:26,3543
2016/06/02 08:47:43,2016/06/02 09:46:42,3539
2016/06/02 10:19:03,2016/06/02 11:17:58,3535
2016/06/02 11:50:24,2016/06/02 12:49:14,3530
2016/06/02 13:21:44,2016/06/02 14:20:30,3526
2016/06/02 14:53:04,2016/06/02 15:51:45,3521
2016/06/02 16:24:24,2016/06/02 17:23:01,3517
2016/06/02 17:55:44,2016/06/02 18:54:17,3513
2016/06/02 19:27:03,2016/06/02 20:25:33,3510
2016/06/02 20:58:23,2016/06/02 21:56:48,3505
2016/06/02 22:29:43,2016/06/02 23:28:04,3501
2016/06/03 00:01:02,2016/06/03 00:59:20,3498
2016/06/03 01:32:22,2016/06/03 02:30:35,3493
2016/06/03 03:03:41,2016/06/03 04:01:51,3490
2016/06/03 04:35:00,2016/06/03 05:33:07,3487
2016/06/03 06:06:20,2016/06/03 07:04:22,3482
2016/06/03 07:37:39,2016/06/03 08:35:38,3479
2016/06/03 09:08:58,2016/06/03 10:06:53,3475
2016/06/03 10:40:17,2016/06/03 11:38:09,3472
2016/06/03 12:11:36,2016/06/03 13:09:24,3468
2016/06/03 13:42:55,2016/06/03 14:40:40,3465
2016/06/03 15:14:14,2016/06/03 16:11:55,3461
2016/06/03 16:45:32,2016/06/03 17:43:11,3459
2016/06/03 18:16:51,2016/06/03 19:14:26,3455
2016/06/03 19:48:10,2016/06/03 20:45:42,3452
2016/06/03 21:19:28,2016/06/03 22:16:57,3449
2016/06/03 22:50:47,2016/06/03 23:48:12,3445
2016/06/04 00:22:05,2016/06/04 01:19:28,3443
2016/06/04 01:53:23,2016/06/04 02:50:43,3440
2016/06/04 03:24:42,2016/06/04 04:21:58,3436
2016/06/04 04:56:00,2016/06/04 05:53:14,3434
2016/06/04 06:27:18,2016/06/04 07:24:29,3431
2016/06/04 07:58:36,2016/06/04 08:55:44,3428
2016/06/04 09:29:54,2016/06/04 10:27:00,3426
2016/06/04 11:01:12,2016/06/04 11:58:15,3423
2016/06/04 12:32:30,2016/06/04 13:29:30,3420
2016/06/04 14:03:48,2016/06/04 15:00:45,3417
2016/06/04 15:35:05,2016/06/04 16:32:00,3415
2016/06/04 17:06:23,2016/06/04 18:03:16,3413
2016/06/04 18:37:41,2016/06/04 19:34:31,3410
2016/06/04 20:08:58,2016/06/04 21:05:46,3408
2016/06/04 21:40:16,2016/06/04 22:37:01,3405
2016/06/04 23:11:34,2016/06/05 00:08:16,3402
2016/06/05 00:42:51,2016/06/05 01:39:31,3400
2016/06/05 02:14:08,2016/06/05 03:10:46,3398
2016/06/05 03:45:26,2016/06/05 04:42:01,3395
2016/06/05 05:16:43,2016/06/05 06:13:16,3393
2016/06/05 06:48:00,2016/06/05 07:44:31,3391
2016/06/05 08:19:17,2016/06/05 09:15:46,3389
2016/06/05 09:50:34,2016/06/05 10:47:01,3387
2016/06/05 11:21:52,2016/06/05 12:18:16,3384
2016/06/05 12:53:09,2016/06/05 13:49:31,3382
2016/06/05 14:24:25,2016/06/05 15:20:46,3381
2016/06/05 15:55:42,2016/06/05 16:52:01,3379
2016/06/05 17:26:59,2016/06/05 18:23:16,3377
2016/06/05 18:58:16,2016/06/05 19:54:30,3374
2016/06/05 20:29:33,2016/06/05 21:25:45,3372
2016/06/05 22:00:50,2016/06/05 22:57:00,3370
2016/06/05 23:32:06,2016/06/06 00:28:15,3369
2016/06/06 01:03:23,2016/06/06 01:59:30,3367
2016/06/06 02:34:39,2016/06/06 03:30:44,3365
2016/06/06 04:05:56,2016/06/06 05:01:59,3363
2016/06/06 05:37:12,2016/06/06 06:33:14,3362
2016/06/06 07:08:29,2016/06/06 08:04:29,3360
2016/06/06 08:39:45,2016/06/06 09:35:43,3358
2016/06/06 10:11:02,2016/06/06 11:06:58,3356
2016/06/06 11:42:18,2016/06/06 12:38:13,3355
2016/06/06 13:13:34,2016/06/06 14:09:27,3353
2016/06/06 14:44:50,2016/06/06 15:40:42,3352
2016/06/06 16:16:07,2016/06/06 17:11:57,3350
2016/06/06 17:47:23,2016/06/06 18:43:11,3348
2016/06/06 19:18:39,2016/06/06 20:14:26,3347
2016/06/06 20:49:55,2016/06/06 21:45:40,3345
2016/06/06 22:21:11,2016/06/06 23:16:55,3344
2016/06/06 23:52:27,2016/06/07 00:48:09,3342
2016/06/07 01:23:43,2016/06/07 02:19:24,3341
2016/06/07 02:54:59,2016/06/07 03:50:38,3339
2016/06/07 04:26:15,2016/06/07 05:21:53,3338
2016/06/07 05:57:30,2016/06/07 06:53:07,3337
2016/06/07 07:28:46,2016/06/07 08:24:22,3336
2016/06/07 09:00:02,2016/06/07 09:55:36,3334
2016/06/07 10:31:17,2016/06/07 11:26:50,3333
2016/06/07 12:02:33,2016/06/07 12:58:05,3332
2016/06/07 13:33:49,2016/06/07 14:29:19,3330
2016/06/07 15:05:04,2016/06/07 16:00:34,3330
2016/06/07 16:36:20,2016/06/07 17:31:48,3328
2016/06/07 18:07:35,2016/06/07 19:03:02,3327
2016/06/07 19:38:51,2016/06/07 20:34:17,3326
2016/06/07 21:10:06,2016/06/07 22:05:31,3325
2016/06/07 22:41:22,2016/06/07 23:36:45,3323
2016/06/08 00:12:37,2016/06/08 01:07:59,3322
2016/06/08 01:43:52,2016/06/08 02:39:14,3322
2016/06/08 03:15:07,2016/06/08 04:10:28,3321
2016/06/08 04:46:23,2016/06/08 05:41:42,3319
2016/06/08 06:17:38,2016/06/08 07:12:56,3318
2016/06/08 07:48:53,2016/06/08 08:44:10,3317
2016/06/08 09:20:08,2016/06/08 10:15:25,3317
2016/06/08 10:51:23,2016/06/08 11:46:39,3316
2016/06/08 12:22:38,2016/06/08 13:17:53,3315
2016/06/08 13:53:53,2016/06/08 14:49:07,3314
2016/06/08 15:25:08,2016/06/08 16:20:21,3313
2016/06/08 16:56:23,2016/06/08 17:51:35,3312
2016/06/08 18:27:38,2016/06/08 19:22:49,3311
2016/06/08 19:58:53,2016/06/08 20:54:03,3310
2016/06/08 21:30:08,2016/06/08 22:25:17,3309
2016/06/08 23:01:23,2016/06/08 23:56:31,3308
2016/06/09 00:32:38,2016/06/09 01:27:45,3307
2016/06/09 02:03:52,2016/06/09 02:58:59,3307
2016/06/09 03:35:07,2016/06/09 04:30:13,3306
2016/06/09 05:06:22,2016/06/09 06:01:27,3305
2016/06/09 06:37:36,2016/06/09 07:32:41,3305
2016/06/09 08:08:51,2016/06/09 09:03:55,3304
2016/06/09 09:40:06,2016/06/09 10:35:09,3303
2016/06/09 11:11:20,2016/06/09 12:06:23,3303
2016/06/09 12:42:35,2016/06/09 13:37:37,3302
2016/06/09 14:13:49,2016/06/09 15:08:51,3302
2016/06/09 15:45:04,2016/06/09 16:40:05,3301
2016/06/09 17:16:18,2016/06/09 18:11:18,3300
2016/06/09 18:47:32,2016/06/09 19:42:32,3300
2016/06/09 20:18:47,2016/06/09 21:13:46,3299
2016/06/09 21:50:01,2016/06/09 22:45:00,3299
